City_ID,City,Lat,Lng,Max Temp,Humidity,Cloudiness,Wind Speed,Country,Date
0,inongo,-1.95,18.2667,23.23,87,99,1.8,CD,1682881720
1,albany,42.6001,-73.9662,13.23,86,100,2.24,US,1682881720
2,butaritari,3.0707,172.7902,28.21,81,45,8.39,KI,1682881720
3,rikitea,-23.1203,-134.9692,25.44,81,15,4.0,PF,1682881720
4,krasnyy kholm,58.0607,37.1203,6.61,77,100,1.76,RU,1682881721
5,awjilah,29.1081,21.2869,23.53,17,0,3.57,LY,1682881721
6,grindavik,63.8424,-22.4338,6.26,45,0,9.26,IS,1682881721
7,cidreira,-30.1811,-50.2056,22.41,67,0,5.16,BR,1682881721
8,busselton,-33.65,115.3333,14.47,87,67,3.49,AU,1682881721
9,srednekolymsk,67.45,153.6833,-3.42,87,100,2.36,RU,1682881721
10,hami,42.8,93.45,18.28,17,5,1.63,CN,1682881722
11,tuktoyaktuk,69.4541,-133.0374,-8.51,92,96,5.52,CA,1682881722
12,superior,46.7208,-92.1041,6.09,80,100,10.8,US,1682881121
13,hermanus,-34.4187,19.2345,15.97,73,0,0.56,ZA,1682881722
14,turukhansk,65.8167,87.9833,-5.24,88,8,4.96,RU,1682881722
15,jamestown,42.097,-79.2353,8.77,93,100,5.66,US,1682881663
16,bluff,-46.6,168.3333,9.76,87,100,2.44,NZ,1682881722
17,beni mazar,28.4962,30.8029,20.75,29,0,3.52,EG,1682881723
18,kawalu,-7.3817,108.2082,23.01,98,100,0.76,ID,1682881723
19,kavieng,-2.5744,150.7967,27.66,80,93,4.6,PG,1682881723
20,whitianga,-36.8333,175.7,18.78,96,100,9.01,NZ,1682881723
21,tiksi,71.6872,128.8694,-7.89,100,100,1.79,RU,1682881723
22,cape town,-33.9258,18.4232,16.23,77,0,3.6,ZA,1682880956
23,east london,-33.0153,27.9116,18.71,77,63,7.41,ZA,1682881723
24,kaitangata,-46.2817,169.8464,9.96,99,100,1.16,NZ,1682881724
25,raudeberg,61.9875,5.1352,4.37,75,100,5.95,NO,1682881724
26,punta arenas,-53.15,-70.9167,7.06,65,0,12.86,CL,1682881551
27,manavalakurichi,8.1333,77.3,26.67,85,100,1.38,IN,1682881724
28,carnarvon,-24.8667,113.6333,22.08,83,100,2.53,AU,1682881724
29,saskylakh,71.9167,114.0833,-1.47,99,100,2.27,RU,1682881724
30,iralaya,15.0,-83.2333,30.01,66,27,5.34,HN,1682881725
31,barela,23.1,80.05,21.76,76,100,3.67,IN,1682881725
32,jishou,28.3167,109.7167,16.61,76,100,0.65,CN,1682881725
33,port alfred,-33.5906,26.891,16.21,90,44,1.34,ZA,1682881725
34,komsomolskiy,40.4272,71.7189,18.4,42,100,2.06,UZ,1682881725
35,paredon,16.0333,-93.8667,35.06,39,99,4.39,MX,1682881726
36,banjar,-8.19,114.9675,25.47,90,97,1.08,ID,1682881726
37,plettenberg bay,-34.0527,23.3716,16.38,76,0,2.07,ZA,1682881644
38,nhulunbuy,-12.2333,136.7667,25.34,83,31,3.09,AU,1682881726
39,oda,35.1833,132.5,12.11,62,1,5.01,JP,1682881726
40,mataura,-46.1927,168.8643,6.93,95,100,1.16,NZ,1682881727
41,orange cove,36.6244,-119.3137,29.23,43,0,3.09,US,1682881727
42,vrangel,42.7297,133.0839,4.32,89,87,3.16,RU,1682881727
43,yellowknife,62.456,-114.3525,8.09,53,100,5.09,CA,1682881727
44,swellendam,-34.0226,20.4417,15.64,68,0,0.75,ZA,1682881727
45,crib point,-38.35,145.2,10.88,66,100,0.54,AU,1682881554
46,longyearbyen,78.2186,15.6401,-9.09,57,20,7.2,SJ,1682881728
47,morgantown,39.6295,-79.9559,14.71,86,100,1.54,US,1682881463
48,dikson,73.5069,80.5464,-13.26,99,99,2.54,RU,1682881728
49,walvis bay,-22.9575,14.5053,14.49,79,6,3.69,NA,1682881728
50,huarmey,-10.0681,-78.1522,26.64,71,42,5.67,PE,1682881728
51,kapaa,22.0752,-159.319,26.18,70,40,3.6,US,1682881729
52,mersing,2.4312,103.8405,26.67,85,72,2.36,MY,1682881729
53,ushuaia,-54.8,-68.3,4.81,56,20,1.54,AR,1682881729
54,vila velha,-20.3297,-40.2925,22.97,94,100,6.69,BR,1682881588
55,caravelas,-17.7125,-39.2481,26.45,71,99,2.88,BR,1682881730
56,hobart,-42.8794,147.3294,8.92,90,82,4.12,AU,1682881730
57,hilo,19.7297,-155.09,26.27,69,0,2.68,US,1682881730
58,cabo san lucas,22.8909,-109.9124,32.56,23,20,2.06,MX,1682881519
59,kruisfontein,-34.0033,24.7314,16.05,87,0,4.22,ZA,1682881730
60,mahebourg,-20.4081,57.7,24.58,81,8,1.5,MU,1682881731
61,andenes,69.3143,16.1194,3.85,75,17,9.26,NO,1682881731
62,kang,-23.6752,22.7876,24.46,27,0,3.62,BW,1682881731
63,la ronge,55.1001,-105.2842,6.41,54,24,2.86,CA,1682881731
64,iqaluit,63.7506,-68.5145,-0.17,82,36,5.81,CA,1682881731
65,petatlan,17.5167,-101.2667,29.89,47,0,3.51,MX,1682881732
66,qaanaaq,77.484,-69.3632,-1.8,72,98,2.17,GL,1682881732
67,kamennomostskiy,44.2983,40.1856,8.91,96,100,1.02,RU,1682881732
68,changde,29.0464,111.6783,16.33,73,13,0.91,CN,1682881732
69,lavrentiya,65.5833,-171.0,-4.85,91,100,2.74,RU,1682881732
70,asau,46.4333,26.4,8.51,78,17,1.8,RO,1682881733
71,vila franca do campo,37.7167,-25.4333,18.23,78,14,4.75,PT,1682881733
72,tasiilaq,65.6145,-37.6368,2.09,71,100,1.57,GL,1682881733
73,pevek,69.7008,170.3133,-18.42,97,64,1.43,RU,1682881733
74,puerto ayora,-0.7393,-90.3518,29.98,89,61,2.24,EC,1682881733
75,pisco,-13.7,-76.2167,25.03,69,0,4.12,PE,1682881733
76,acapulco,16.8634,-99.8901,29.9,58,0,5.66,MX,1682881684
77,tutoia,-2.7619,-42.2744,27.73,80,100,4.22,BR,1682881647
78,fairbanks,64.8378,-147.7164,5.98,89,75,0.0,US,1682881501
79,dunedin,-45.8742,170.5036,11.01,81,100,2.58,NZ,1682881541
80,jertih,5.7336,102.4897,25.06,90,100,1.51,MY,1682881734
81,klaksvik,62.2266,-6.589,2.51,62,100,6.98,FO,1682881734
82,luderitz,-26.6481,15.1594,14.39,81,100,3.12,NA,1682881734
83,sinnamary,5.3833,-52.95,28.33,73,34,4.94,GF,1682881734
84,avera,33.194,-82.5271,22.83,52,89,8.46,US,1682881734
85,mar del plata,-38.0023,-57.5575,16.72,77,100,2.68,AR,1682881735
86,pasighat,28.0667,95.3333,21.5,71,100,1.93,IN,1682881735
87,campina verde,-19.5356,-49.4864,27.88,49,0,2.02,BR,1682881735
88,georgetown,5.4112,100.3354,25.97,94,20,0.51,MY,1682881556
89,penzance,50.1186,-5.5371,12.38,91,0,4.88,GB,1682881735
90,zeya,53.75,127.2667,2.72,59,99,1.15,RU,1682881735
91,tambura,5.6,27.4667,21.06,89,100,1.29,SS,1682881735
92,katsuura,35.1333,140.3,16.4,74,100,6.88,JP,1682881735
93,saint-philippe,-21.3585,55.7679,23.77,78,40,2.36,RE,1682881736
94,shenjiamen,29.9576,122.298,15.01,72,0,4.04,CN,1682881736
95,talnakh,69.4865,88.3972,-6.55,90,9,5.71,RU,1682881736
96,chuy,-33.6971,-53.4616,28.07,41,100,5.45,UY,1682881736
97,rawson,-43.3002,-65.1023,14.18,34,10,5.33,AR,1682881736
98,namibe,-15.1961,12.1522,24.55,84,88,4.21,AO,1682881737
99,oranjestad,12.524,-70.027,31.97,66,20,10.29,AW,1682881737
100,fortuna,40.5982,-124.1573,12.77,68,100,2.28,US,1682881441
101,ulladulla,-35.35,150.4667,11.54,89,78,2.13,AU,1682881737
102,atuona,-9.8,-139.0333,27.49,72,25,8.21,PF,1682881737
103,clyde river,70.4692,-68.5914,-0.29,85,100,0.9,CA,1682881737
104,takoradi,4.8845,-1.7554,27.16,77,45,2.35,GH,1682881738
105,mareeba,-17.0,145.4333,21.4,94,100,0.88,AU,1682881738
106,mana,5.6592,-53.7767,28.41,72,68,4.75,GF,1682881738
107,olafsvik,64.8945,-23.7142,2.76,51,33,6.56,IS,1682881738
108,castro,-24.7911,-50.0119,22.33,57,28,0.67,BR,1682881738
109,marzuq,14.4,46.4667,25.87,56,93,2.37,YE,1682881739
110,new norfolk,-42.7826,147.0587,8.73,77,62,1.1,AU,1682881739
111,kodiak,57.79,-152.4072,4.73,87,100,9.26,US,1682881739
112,lebu,-37.6167,-73.65,12.75,67,31,4.13,CL,1682881739
113,summerville,33.0185,-80.1757,23.83,70,75,11.32,US,1682881739
114,tazovskiy,67.4667,78.7,-6.36,92,11,6.76,RU,1682881740
115,nikolskoye,59.7035,30.7861,4.95,92,17,1.61,RU,1682881740
116,port elizabeth,-33.918,25.5701,17.4,88,9,1.79,ZA,1682881740
117,bubaque,11.2833,-15.8333,25.16,81,4,6.4,GW,1682881740
118,altay,47.8667,88.1167,6.37,46,7,4.67,CN,1682881740
119,honavar,14.2833,74.45,26.28,75,100,1.54,IN,1682881740
120,airai,-8.9266,125.4092,13.25,81,6,0.9,TL,1682881741
121,san patricio,28.017,-97.5169,30.65,30,0,1.87,US,1682881741
122,khatanga,71.9667,102.5,-19.36,100,95,1.58,RU,1682881741
123,johnstown,40.3267,-78.922,14.69,97,100,1.54,US,1682881700
124,sao filipe,14.8961,-24.4956,27.97,48,93,6.18,CV,1682881741
125,churapcha,62.0025,132.4325,0.25,97,100,3.26,RU,1682881741
126,tabas,33.5959,56.9244,27.98,18,16,2.3,IR,1682881742
127,port hardy,50.6996,-127.4199,9.44,96,100,2.9,CA,1682881742
128,seryshevo,51.0933,128.3786,5.07,47,5,1.83,RU,1682881742
129,hangal,14.7667,75.1333,23.6,76,66,3.16,IN,1682881743
130,belmonte,-15.8631,-38.8828,26.81,76,6,2.93,BR,1682881743
131,brewster,41.3973,-73.6171,13.84,96,100,5.14,US,1682881743
132,port-gentil,-0.7193,8.7815,27.98,78,20,2.57,GA,1682881743
133,chumikan,54.7183,135.315,-7.33,97,99,0.34,RU,1682881744
134,celestun,20.8667,-90.4,26.24,52,5,4.85,MX,1682881744
135,tiznit,29.5833,-9.5,23.95,41,0,2.32,MA,1682881744
136,piacabucu,-10.4056,-36.4344,27.5,75,87,4.19,BR,1682881745
137,epe,6.5841,3.9834,26.07,87,84,2.38,NG,1682881745
138,paamiut,61.994,-49.6678,0.65,66,100,3.07,GL,1682881746
139,tura,25.5198,90.2201,19.94,85,100,2.06,IN,1682881746
140,bredasdorp,-34.5322,20.0403,13.65,89,0,0.85,ZA,1682881746
141,poum,-20.2333,164.0167,25.39,77,100,6.85,NC,1682881746
142,papetoai,-17.4961,-149.8729,28.77,72,0,4.68,PF,1682881747
143,shumyachi,53.8583,32.4242,6.09,70,99,1.24,RU,1682881747
144,teya,60.3778,92.6267,-2.95,97,96,1.95,RU,1682881747
145,lida,53.8833,25.2997,5.35,60,3,4.71,BY,1682881747
146,pontianak,-0.0333,109.3333,24.99,100,100,1.03,ID,1682881748
147,saint george,37.1041,-113.5841,30.24,15,0,1.54,US,1682881586
148,ponta do sol,32.6667,-17.1,24.28,75,99,1.03,PT,1682881748
149,shimoda,34.6667,138.95,16.17,76,100,0.88,JP,1682881748
150,keetmanshoop,-26.5833,18.1333,24.64,19,38,2.54,NA,1682881748
151,vaini,-21.2,-175.2,25.09,88,20,4.63,TO,1682881749
152,kalmunai,7.4167,81.8167,26.77,83,100,2.82,LK,1682881749
153,belaya gora,68.5333,146.4167,-3.89,89,100,2.01,RU,1682881749
154,faya,18.3851,42.4509,14.29,62,92,1.52,SA,1682881750
155,itarema,-2.9248,-39.9167,27.87,81,71,4.58,BR,1682881750
156,faanui,-16.4833,-151.75,28.27,77,11,7.24,PF,1682881751
157,kiama,-34.6833,150.8667,12.36,85,97,1.34,AU,1682881751
158,denpasar,-8.65,115.2167,26.81,88,20,2.57,ID,1682881622
159,carauari,-4.8828,-66.8958,30.66,67,55,1.54,BR,1682881517
160,torbay,47.6666,-52.7314,7.38,83,100,10.8,CA,1682881522
161,kahului,20.8947,-156.47,26.65,75,40,8.23,US,1682881752
162,arlit,18.7369,7.3853,34.58,10,66,5.87,NE,1682881752
163,praia,14.9215,-23.5087,26.3,65,20,7.72,CV,1682881753
164,sembakung,3.8167,117.25,23.44,99,100,0.55,ID,1682881753
165,bouar,5.934,15.596,18.81,95,98,1.49,CF,1682881753
166,doctor arroyo,23.6667,-100.1833,24.4,23,6,3.69,MX,1682881753
167,lincoln,40.8,-96.667,15.0,45,75,13.38,US,1682881725
168,tilichiki,60.4667,166.1,-14.46,93,48,3.14,RU,1682881754
169,price,39.5994,-110.8107,25.06,14,0,5.14,US,1682881754
170,swidwin,53.7746,15.7767,5.75,74,16,1.7,PL,1682881754
171,beringovskiy,63.05,179.3167,-13.29,89,48,4.84,RU,1682881754
172,asosa,10.0667,34.5333,18.3,74,98,0.95,ET,1682881755
173,muhos,64.808,25.9931,2.16,99,100,2.01,FI,1682881755
174,rio gallegos,-51.6226,-69.2181,7.03,45,40,8.75,AR,1682881525
175,ordzhonikidze,52.4411,61.7408,13.68,38,100,4.49,KZ,1682881755
176,richards bay,-28.783,32.0377,19.38,89,100,0.66,ZA,1682881755
177,mattru,7.6244,-11.8332,27.87,74,0,3.34,SL,1682881755
178,maltahohe,-24.8333,16.9833,22.9,13,18,4.43,NA,1682881756
179,kelvington,52.1667,-103.5343,8.01,44,97,2.42,CA,1682881756
180,ayagoz,47.9714,80.4392,4.74,46,5,3.26,KZ,1682881756
181,fort nelson,58.8053,-122.7002,17.19,35,100,0.45,CA,1682881756
182,tiarei,-17.5333,-149.3333,29.01,80,13,6.64,PF,1682881757
183,sisimiut,66.9395,-53.6735,0.66,85,65,7.39,GL,1682881757
184,dahuk,36.8695,42.994,13.13,49,4,1.2,IQ,1682881757
185,hithadhoo,-0.6,73.0833,28.36,77,100,7.14,MV,1682881757
186,san carlos de bariloche,-41.1456,-71.3082,5.86,70,40,11.83,AR,1682881758
187,college,64.8569,-147.8028,5.97,88,100,0.0,US,1682881585
188,ughelli,5.4899,6.0074,25.57,91,97,1.88,NG,1682881761
189,stara paka,50.5103,15.4944,8.62,64,5,2.25,CZ,1682881761
190,kieta,-6.2167,155.6333,26.48,84,81,2.35,PG,1682881762
191,avarua,-21.2078,-159.775,24.03,69,20,4.12,CK,1682881762
192,yulara,-25.2406,130.9889,12.9,48,100,3.13,AU,1682881762
193,birmitrapur,22.4,84.7667,23.28,66,100,1.69,IN,1682881763
194,upernavik,72.7868,-56.1549,0.1,67,16,2.9,GL,1682881763
195,sept-iles,50.2001,-66.3821,7.32,71,100,5.94,CA,1682881763
196,cherskiy,68.75,161.3,-12.85,96,63,1.62,RU,1682881764
197,vestmannaeyjar,63.4427,-20.2734,4.96,44,18,2.3,IS,1682881764
198,rock sound,24.9,-76.2,26.48,83,100,9.27,BS,1682881764
199,moultrie,31.1799,-83.7891,23.37,56,40,6.17,US,1682881765
200,collie,-33.3667,116.15,9.37,97,0,1.14,AU,1682881765
201,cayenne,4.9333,-52.3333,30.02,70,75,5.14,GF,1682881711
202,moyale,3.5167,39.0584,20.39,85,100,3.0,KE,1682881766
203,igra,57.5558,53.0547,7.18,81,100,3.35,RU,1682881767
204,vao,-22.6667,167.4833,23.63,70,100,5.2,NC,1682881767
205,beloha,-25.1667,45.05,20.32,91,1,2.21,MG,1682881641
206,gunjur,13.2019,-16.7339,22.67,82,0,4.9,GM,1682881767
207,sitka,57.0531,-135.33,8.94,87,100,2.57,US,1682881767
208,ahipara,-35.1667,173.1667,18.81,90,100,5.38,NZ,1682881768
209,sorada,19.75,84.4333,25.68,71,11,0.43,IN,1682881768
210,bambous virieux,-20.3428,57.7575,24.56,81,8,1.34,MU,1682881768
211,nizwa,22.9333,57.5333,29.36,25,0,1.75,OM,1682881768
212,thompson,55.7435,-97.8558,3.28,96,100,2.75,CA,1682881769
213,whitehorse,60.7161,-135.0538,7.95,70,100,5.81,CA,1682881769
214,shaunavon,49.6501,-108.4181,13.23,37,31,5.72,CA,1682881732
215,mogok,22.9167,96.5,20.82,49,26,0.95,MM,1682881769
216,arraial do cabo,-22.9661,-42.0278,24.92,73,0,8.23,BR,1682881770
217,khilok,51.3674,110.4676,8.35,59,100,1.65,RU,1682881770
218,margate,51.3813,1.3862,13.28,72,100,0.45,GB,1682881770
219,junagarh,19.8667,82.9333,23.3,78,31,1.31,IN,1682881770
220,bathsheba,13.2167,-59.5167,29.34,74,40,5.14,BB,1682881771
221,ende,-8.8432,121.6623,23.93,84,9,0.91,ID,1682881771
222,bolu,40.6667,31.5833,3.31,87,10,0.56,TR,1682881771
223,bowen,-20.0167,148.2333,20.64,90,0,2.53,AU,1682881772
224,ornskoldsvik,63.2909,18.7153,3.53,81,44,4.12,SE,1682881772
225,berlevag,70.8578,29.0864,2.97,70,0,1.54,NO,1682881772
226,mercedes,-34.6515,-59.4307,17.02,90,100,11.56,AR,1682881773
227,mae sai,20.4335,99.8762,21.66,81,8,0.39,TH,1682881773
228,fare,-16.7,-151.0167,28.15,77,25,7.13,PF,1682881774
229,kaabong,3.4836,34.1492,16.87,97,100,2.11,UG,1682881774
230,portland,45.5234,-122.6762,15.96,75,100,3.13,US,1682880974
231,moussoro,13.6408,16.4901,32.16,28,99,4.3,TD,1682881775
232,barrow,71.2906,-156.7887,-12.99,78,20,6.69,US,1682881775
233,bonavista,48.6499,-53.1147,1.42,79,4,11.01,CA,1682881775
234,bo rai,12.5728,102.5371,28.15,90,78,0.94,TH,1682881775
235,hualmay,-11.0964,-77.6139,24.59,76,82,5.09,PE,1682881776
236,barbacena,-21.2258,-43.7736,20.66,74,19,0.33,BR,1682881776
237,kirillov,59.863,38.3813,7.09,70,100,2.78,RU,1682881776
238,ternate,0.8,127.4,27.55,77,100,1.39,ID,1682881776
239,egvekinot,66.3167,-179.1667,-14.75,83,10,2.74,RU,1682881777
240,el alto,-4.2714,-81.2147,29.81,72,24,3.69,PE,1682881777
241,gamba,-2.65,10.0,25.55,84,15,1.37,GA,1682881777
242,touros,-5.1989,-35.4608,27.62,81,58,5.25,BR,1682881777
243,elat,29.5581,34.9482,21.03,34,0,4.86,IL,1682881662
244,bengkulu,-3.8004,102.2655,24.66,93,44,1.65,ID,1682881778
245,moree,-29.4667,149.85,9.84,57,62,2.75,AU,1682881778
246,chalons-en-champagne,48.9539,4.3672,14.57,83,100,2.74,FR,1682881778
247,atar,20.5169,-13.0499,38.54,6,0,5.48,MR,1682881778
248,deputatskiy,69.3,139.9,-8.73,98,100,1.08,RU,1682881778
249,sri aman,1.2376,111.4621,23.62,99,100,0.14,MY,1682881779
250,nouakchott,18.0858,-15.9785,25.96,56,0,7.15,MR,1682881779
251,souillac,-20.5167,57.5167,24.36,85,1,1.83,MU,1682881779
252,oksfjord,70.2396,22.3479,5.1,83,33,3.02,NO,1682881780
253,poso,-1.3959,120.7524,27.41,72,98,1.77,ID,1682881780
254,lac du bonnet,50.2536,-96.0612,9.48,43,97,6.98,CA,1682881688
255,quatre cocos,-20.2078,57.7625,24.49,82,4,1.46,MU,1682881780
256,sompeta,18.9333,84.6,26.73,68,97,1.58,IN,1682881781
257,ardakan,32.31,54.0175,25.54,23,95,1.92,IR,1682881781
258,te anau,-45.4167,167.7167,8.53,92,100,0.41,NZ,1682881781
259,marsh harbour,26.5412,-77.0636,27.76,73,100,14.15,BS,1682881523
260,ballina,-28.8667,153.5667,14.29,71,0,4.69,AU,1682881781
261,san quintin,30.4833,-115.95,18.04,69,69,5.83,MX,1682881782
262,lima,-12.0432,-77.0282,25.14,65,20,4.63,PE,1682881270
263,luocheng,29.3848,104.0286,19.02,69,84,0.84,CN,1682881782
264,borogontsy,62.6683,131.1683,0.04,95,100,1.66,RU,1682881783
265,barranca,-10.75,-77.7667,24.32,77,98,5.29,PE,1682881783
266,telford,52.6766,-2.4493,12.51,88,75,4.63,GB,1682881783
267,port blair,11.6667,92.75,28.42,70,80,1.22,IN,1682881783
268,gornyy,55.1153,83.9059,-1.85,77,74,3.42,RU,1682881783
269,salinas,36.6777,-121.6555,20.55,83,100,4.63,US,1682881783
270,norman wells,65.282,-126.8329,3.5,87,100,3.27,CA,1682881784
271,malindi,-3.2175,40.1191,25.48,85,100,4.46,KE,1682881784
272,sinnar,13.5691,33.5672,32.86,11,39,6.39,SD,1682881753
273,port macquarie,-31.4333,152.9167,13.27,72,98,2.83,AU,1682881784
274,esperance,-33.8667,121.9,15.36,81,100,3.46,AU,1682881784
275,ribeira grande,38.5167,-28.7,17.22,67,40,9.26,PT,1682881784
276,valle hermoso,25.6667,-97.8333,30.92,21,0,1.44,MX,1682881784
277,ashqelon,31.6693,34.5715,17.68,60,0,1.68,IL,1682881785
278,mlowo,-9.0,32.9833,14.59,96,92,2.15,TZ,1682881785
279,peniche,39.3558,-9.3811,18.95,81,0,8.26,PT,1682881677
280,severo-kurilsk,50.6789,156.125,1.19,97,100,13.65,RU,1682881785
281,mayo,38.8876,-76.5119,18.35,93,100,2.06,US,1682881785
282,caluquembe,-13.7833,14.6833,16.56,54,100,0.78,AO,1682881786
283,diveyevo,55.0433,43.2418,13.19,92,100,7.22,RU,1682881786
284,camacha,33.0833,-16.3333,19.68,78,20,4.12,PT,1682881786
285,talcahuano,-36.7167,-73.1167,15.82,59,40,5.14,CL,1682881786
286,smolenskaya,44.7887,38.8018,10.9,83,72,4.82,RU,1682881786
287,port keats,-14.25,129.55,26.06,65,97,2.45,AU,1682881787
288,kresttsy,58.2452,32.5165,6.6,87,100,2.42,RU,1682881787
289,codrington,-38.2667,141.9667,12.6,92,100,2.36,AU,1682881787
290,omboue,-1.5746,9.2618,26.04,85,46,2.42,GA,1682881787
291,talakan,50.3167,130.3667,3.59,56,9,1.51,RU,1682881787
292,barsovo,61.1667,73.1667,-1.93,91,15,5.08,RU,1682881787
293,kurumkan,54.3,110.3,6.39,87,100,1.67,RU,1682881788
294,orneta,54.1148,20.1333,2.55,84,0,2.13,PL,1682881788
295,ilulissat,69.2167,-51.1,5.01,42,0,6.69,GL,1682881788
296,moron,-34.6534,-58.6198,19.43,80,100,5.66,AR,1682881788
297,acari,-15.4311,-74.6158,26.69,56,6,4.84,PE,1682881788
298,carolina,18.3808,-65.9574,32.32,70,40,7.2,PR,1682881734
299,kodinsk,58.6881,99.1844,-4.71,92,30,3.01,RU,1682881789
300,mangai,-4.05,19.5333,20.92,94,96,0.87,CD,1682881789
301,rio grande,-32.035,-52.0986,31.06,58,92,5.34,BR,1682881621
302,lorengau,-2.0226,147.2712,27.11,79,100,1.39,PG,1682881789
303,nome,64.5011,-165.4064,2.28,75,0,5.66,US,1682881789
304,isangel,-19.55,169.2667,24.99,83,88,3.43,VU,1682881789
305,warmbad,-28.45,18.7333,20.99,14,100,4.24,NA,1682881790
306,syracuse,37.0881,15.2792,15.65,93,97,4.01,IT,1682881790
307,chokurdakh,70.6333,147.9167,-11.81,96,100,2.06,RU,1682881790
308,sheregesh,52.9209,87.9869,-1.92,82,85,1.28,RU,1682881790
309,west odessa,31.8424,-102.4988,33.01,10,0,9.26,US,1682881493
310,glotovka,53.9491,46.7042,16.44,73,100,8.06,RU,1682881790
311,malayal,7.208,121.942,26.98,77,88,1.67,PH,1682881791
312,port lincoln,-34.7333,135.8667,15.68,80,100,2.28,AU,1682881791
313,hirtshals,57.5881,9.9592,6.14,74,68,8.92,DK,1682881791
314,gbadolite,4.2833,21.0167,21.81,90,100,1.31,CD,1682881791
315,saint anthony,45.0205,-93.218,10.73,54,100,11.32,US,1682881723
316,chake chake,-5.2459,39.7666,24.54,91,100,3.73,TZ,1682881791
317,padang,-0.9492,100.3543,25.62,90,100,1.47,ID,1682881663
318,udachnyy,66.4167,112.4,1.92,69,100,7.91,RU,1682881792
319,ilo,-17.6394,-71.3375,22.0,71,20,5.0,PE,1682881792
320,raga,8.4596,25.678,25.05,63,98,1.73,SS,1682881792
321,verkhnevilyuysk,63.4453,120.3167,1.5,93,100,4.56,RU,1682881792
322,pachino,36.7186,15.0907,16.52,87,100,3.53,IT,1682881792
323,najran,17.4924,44.1277,24.51,42,92,2.99,SA,1682881792
324,alta floresta,-9.8756,-56.0861,28.51,76,47,1.42,BR,1682881792
325,agadez,19.75,10.25,31.06,9,27,4.07,NE,1682881793
326,pacific grove,36.6177,-121.9166,19.34,88,100,4.92,US,1682881741
327,tuatapere,-46.1333,167.6833,9.58,90,100,1.34,NZ,1682881793
328,san juan,-31.5375,-68.5364,17.93,43,15,11.48,AR,1682881505
329,lagoa,39.05,-27.9833,15.7,73,0,9.79,PT,1682881793
330,mecca,21.4267,39.8261,26.5,34,0,4.65,SA,1682881572
331,dudinka,69.4058,86.1778,-6.32,92,29,6.72,RU,1682881793
332,yoichi,43.2039,140.7703,8.48,82,25,6.46,JP,1682881794
333,diadema,-23.6861,-46.6228,25.97,73,40,4.63,BR,1682881794
334,provideniya,64.3833,-173.3,-4.67,89,100,4.97,RU,1682881794
335,kysyl-syr,63.8986,122.7617,1.34,90,100,4.74,RU,1682881794
336,vagur,61.4732,-6.8119,2.54,72,100,9.31,FO,1682881795
337,puerto narino,-3.7703,-70.3831,29.79,64,97,1.3,CO,1682881795
338,muravlenko,63.7898,74.523,-5.91,94,94,7.63,RU,1682881795
339,pahrump,36.2083,-115.9839,33.24,11,93,1.79,US,1682881795
340,diamantino,-14.4086,-56.4461,30.67,57,88,0.65,BR,1682881795
341,kabakovo,54.5369,56.1517,16.79,58,0,2.0,RU,1682881795
342,montepuez,-13.1256,38.9997,20.61,81,64,2.52,MZ,1682881795
343,grand gaube,-20.0064,57.6608,24.65,79,0,1.34,MU,1682881796
344,henties bay,-22.116,14.2845,16.12,83,2,3.47,NA,1682881796
345,boa vista,2.8197,-60.6733,31.99,55,40,6.17,BR,1682881666
346,abdanan,32.9926,47.4198,20.99,33,73,2.72,IR,1682881796
347,saldanha,-33.0117,17.9442,15.6,79,0,6.08,ZA,1682881796
348,kousseri,12.0769,15.0306,33.5,28,58,0.42,CM,1682881796
349,naze,28.3667,129.4833,17.05,78,100,3.47,JP,1682881796
350,bonfim,3.0833,-59.95,33.16,44,99,3.58,BR,1682881796
351,constitucion,-35.3333,-72.4167,15.3,62,8,3.44,CL,1682881797
352,archidona,37.0965,-4.3887,19.4,40,54,1.47,ES,1682881797
353,basco,20.4487,121.9702,25.87,86,100,7.68,PH,1682881797
354,cochrane,51.1834,-114.4687,19.66,39,66,5.93,CA,1682881797
355,belyy yar,53.6039,91.3903,0.94,55,0,3.0,RU,1682881798
356,flinders,-34.5833,150.8552,12.25,87,91,0.89,AU,1682881798
357,thio,-21.6167,166.2167,18.98,87,100,3.4,NC,1682881798
358,aklavik,68.2191,-135.0107,-6.1,93,100,3.98,CA,1682881798
359,nemuro,43.3236,145.575,5.74,87,2,7.08,JP,1682881798
360,acarau,-2.8856,-40.12,28.1,81,68,4.85,BR,1682881798
361,luena,-11.7833,19.9167,15.83,62,43,1.12,AO,1682881798
362,beinamar,8.6698,15.3813,29.89,42,96,0.95,TD,1682881799
363,grootfontein,-19.5667,18.1167,25.02,31,97,2.42,NA,1682881799
364,zhuanghe,39.7008,122.9911,9.99,45,100,2.21,CN,1682881799
365,boende,-0.2167,20.8667,21.86,94,92,0.75,CD,1682881799
366,baykit,61.67,96.37,-9.97,98,75,1.6,RU,1682881799
367,panguipulli,-39.6333,-72.3333,9.22,90,49,2.5,CL,1682881800
368,bethel,41.3712,-73.414,13.71,89,100,5.14,US,1682881800
369,guiyang,26.5833,106.7167,13.94,78,100,1.35,CN,1682881800
370,bilara,26.1792,73.7056,25.04,52,31,3.11,IN,1682881800
371,pokaran,26.9167,71.9167,25.18,50,16,3.94,IN,1682881801
372,alofi,-19.0595,-169.9187,25.47,75,98,8.7,NU,1682881801
373,hearst,49.6835,-83.6665,7.26,99,100,2.23,CA,1682881801
374,dunmore east,52.1514,-6.9861,15.18,69,75,3.09,IE,1682881649
375,huilong,31.8111,121.655,14.02,69,0,3.42,CN,1682881802
376,emerald,-23.5333,148.1667,12.76,69,0,3.54,AU,1682881803
377,nanortalik,60.1432,-45.2371,2.52,62,0,2.11,GL,1682881803
378,vilyuysk,63.7553,121.6247,1.29,91,100,4.41,RU,1682881803
379,nchelenge,-9.3451,28.734,21.88,79,19,1.82,ZM,1682881804
380,nyahururu,0.0421,36.3673,12.65,92,100,1.71,KE,1682881804
381,kloulklubed,7.0419,134.2556,28.74,77,100,6.46,PW,1682881805
382,ushtobe,45.2514,77.9838,13.96,29,24,9.58,KZ,1682881805
383,victoria,22.2855,114.1577,24.62,86,100,5.81,HK,1682881805
384,tomatlan,19.9333,-105.25,31.5,34,1,4.61,MX,1682881805
385,hvide sande,56.0045,8.1294,7.83,69,100,4.03,DK,1682881806
386,roebourne,-20.7833,117.1333,24.25,23,100,2.35,AU,1682881806
387,aksarka,66.5606,67.7975,-11.56,93,12,2.06,RU,1682881807
388,waipawa,-41.4122,175.5153,14.18,94,100,3.17,NZ,1682881807
389,camacari,-12.6975,-38.3242,28.87,89,46,2.39,BR,1682881807
390,bandar,2.05,99.75,23.37,96,100,0.95,ID,1682881807
391,acajutla,13.5928,-89.8275,31.7,57,64,4.58,SV,1682881808
392,nyurba,63.2842,118.3319,0.85,99,100,2.31,RU,1682881808
393,merauke,-8.4667,140.3333,25.33,89,100,4.63,ID,1682881808
394,fukue,32.6881,128.8419,16.33,62,0,6.22,JP,1682881809
395,coquimbo,-29.9533,-71.3436,21.85,56,0,7.2,CL,1682881602
396,riobamba,-1.6667,-78.6333,17.42,66,91,3.72,EC,1682881809
397,rio claro,-22.4114,-47.5614,25.28,58,6,0.87,BR,1682881679
398,alagoinhas,-12.1356,-38.4192,25.75,86,52,2.72,BR,1682881704
399,causapscal,48.3542,-67.227,11.81,56,100,5.69,CA,1682881810
400,misratah,32.3754,15.0925,21.34,59,15,9.47,LY,1682881810
401,rocha,-34.4833,-54.3333,29.06,47,100,6.33,UY,1682881811
402,manadhoo,5.7667,73.3833,28.82,74,100,3.59,MV,1682881811
403,honiara,-9.4333,159.95,25.84,85,29,2.79,SB,1682881812
404,mikhaylovka,50.06,43.2379,12.61,81,100,2.36,RU,1682881812
405,tahoua,14.8888,5.2692,33.37,17,44,2.19,NE,1682881812
406,granadilla de abona,28.1188,-16.576,24.98,67,0,6.17,ES,1682881813
407,kulhudhuffushi,6.6221,73.07,29.05,72,100,2.26,MV,1682881813
408,hofn,64.2539,-15.2082,2.58,38,15,4.4,IS,1682881813
409,labuhan,-6.8844,112.2051,26.22,84,18,0.88,ID,1682881813
410,sorland,67.667,12.6934,3.92,90,100,11.0,NO,1682881814
411,evensk,61.95,159.2333,-8.55,91,40,2.43,RU,1682881814
412,dillon,34.4166,-79.3712,20.99,77,63,7.77,US,1682881660
413,terra santa,-2.1042,-56.4869,30.39,65,100,2.23,BR,1682881815
414,katangli,51.7102,143.2326,-2.99,94,100,7.57,RU,1682881815
415,bulgan,48.8125,103.5347,11.93,26,100,1.3,MN,1682881816
416,kulu,39.0951,33.0799,7.09,60,2,1.41,TR,1682881816
417,baringo,0.4667,35.9667,21.12,84,100,1.02,KE,1682881816
418,ahuimanu,21.4447,-157.8378,26.84,74,75,6.17,US,1682881817
419,terney,45.0503,136.6092,2.56,97,100,1.34,RU,1682881817
420,spearfish,44.4908,-103.8594,13.4,30,0,2.06,US,1682881817
421,lengshuitan,26.4111,111.5956,15.83,70,100,0.65,CN,1682881524
422,gannan,47.9147,123.5031,5.27,69,0,2.61,CN,1682881818
423,a coruna,43.3713,-8.396,17.47,85,20,4.92,ES,1682881818
424,fengzhen,40.4394,113.1536,10.9,37,24,1.6,CN,1682881531
425,newburn,54.9876,-1.7442,13.38,82,20,3.09,GB,1682881819
426,norrtalje,59.758,18.705,8.02,66,4,1.36,SE,1682881819
427,tongliao,43.6125,122.2653,6.57,41,1,2.78,CN,1682881820
428,severnyy,50.677,36.5532,7.02,100,100,2.0,RU,1682881820
429,goma,-1.6792,29.2228,17.83,89,100,1.21,CD,1682881820
430,vardo,70.3705,31.1107,3.99,81,0,7.72,NO,1682881820
431,bandarbeyla,9.4942,50.8122,28.41,77,36,3.61,SO,1682881821
432,sao joao da barra,-21.6403,-41.0511,25.05,79,80,4.05,BR,1682881821
433,hwange,-18.3693,26.5019,19.96,30,0,1.04,ZW,1682881822
434,tahta,26.7693,31.5021,21.82,20,0,4.83,EG,1682881822
435,pangnirtung,66.1451,-65.7125,0.04,91,99,1.69,CA,1682881822
436,yar-sale,66.8333,70.8333,-10.19,91,8,4.28,RU,1682881823
437,naantali,60.4674,22.0243,4.5,64,0,1.54,FI,1682881823
438,nguruka,-5.1092,31.0419,19.27,94,100,0.2,TZ,1682881823
439,japura,-0.3167,102.35,23.61,99,100,2.04,ID,1682881823
440,san miguelito,9.0333,-79.5,26.63,85,100,4.63,PA,1682881824
441,alamogordo,32.8995,-105.9603,30.78,12,0,3.09,US,1682881824
442,flin flon,54.7682,-101.865,8.07,53,73,2.14,CA,1682881824
443,mount pleasant,32.7941,-79.8626,23.36,69,75,9.26,US,1682881782
444,los llanos de aridane,28.6585,-17.9182,20.86,78,20,4.63,ES,1682881825
445,verkhoyansk,67.5447,133.385,-3.22,94,100,0.45,RU,1682881825
446,mount gambier,-37.8333,140.7667,12.78,89,100,1.62,AU,1682881825
447,rio cuarto,-33.1307,-64.3499,14.07,51,100,8.23,AR,1682881554
448,zhangye,38.9342,100.4517,15.05,16,100,1.45,CN,1682881827
449,ambilobe,-13.2,49.05,23.01,91,7,1.39,MG,1682881827
450,krabi,8.0726,98.9105,25.85,87,100,2.42,TH,1682881828
451,korla,41.7597,86.1469,18.55,25,93,4.37,CN,1682881828
452,zyrardow,52.0488,20.446,12.01,68,2,2.89,PL,1682881828
453,bilibino,68.0546,166.4372,-10.1,94,99,0.6,RU,1682881829
454,leningradskiy,69.3833,178.4167,-19.09,97,82,1.14,RU,1682881829
455,dwarka,22.2394,68.9678,26.74,68,0,5.29,IN,1682881829
456,cape coast,5.1053,-1.2466,27.67,78,83,2.22,GH,1682881830
457,velikodvorskiy,55.25,40.6678,7.79,97,100,4.72,RU,1682881830
458,moose factory,51.2585,-80.6094,8.45,97,100,3.57,CA,1682881830
459,hornepayne,49.2138,-84.7705,3.07,99,100,3.42,CA,1682881830
460,kananga,-5.8958,22.4178,21.13,89,83,1.46,CD,1682881831
461,agbor,6.2518,6.1934,25.5,92,82,2.52,NG,1682881831
462,sarakhs,36.5449,61.1577,24.33,22,44,0.33,IR,1682881831
463,taoudenni,22.6783,-3.9836,37.94,5,0,2.54,ML,1682881831
464,batemans bay,-35.7167,150.1833,13.94,91,99,1.56,AU,1682881832
465,mirnyy,62.5353,113.9611,-9.1,97,50,1.84,RU,1682881832
466,santa rosa,14.3122,121.1114,27.27,82,100,0.74,PH,1682881832
467,maceio,-9.6658,-35.7353,24.69,100,75,3.09,BR,1682881832
468,sechura,-5.5569,-80.8222,30.13,55,31,4.91,PE,1682881833
469,ixtapa,20.7,-105.2,26.57,61,75,4.12,MX,1682881833
470,salalah,17.0151,54.0924,29.05,84,40,1.54,OM,1682881834
471,dicabisagan,17.0818,122.4157,25.67,88,100,0.13,PH,1682881834
472,half moon bay,37.4636,-122.4286,19.88,76,75,14.4,US,1682881834
473,muli,2.9167,73.5667,28.87,77,100,6.58,MV,1682881835
474,gat,31.61,34.7642,17.12,100,0,1.35,IL,1682881835
475,san cristobal,7.7669,-72.225,31.1,55,21,3.13,VE,1682881835
476,kavaratti,10.5669,72.642,28.68,74,100,2.65,IN,1682881835
477,dingle,10.9995,122.6711,24.91,91,100,2.7,PH,1682881835
478,marrakesh,31.6315,-8.0083,30.04,30,40,5.14,MA,1682881836
479,qaqortoq,60.7167,-46.0333,4.03,51,0,2.25,GL,1682881836
480,chapais,49.7834,-74.8492,5.42,92,100,5.41,CA,1682881836
481,nova vicosa,-17.8919,-39.3719,26.32,72,92,3.51,BR,1682881620
482,puri,19.8,85.85,29.29,63,100,2.6,IN,1682881837
483,kindu,-2.95,25.95,21.28,91,95,0.02,CD,1682881837
484,buchanan,5.8808,-10.0467,26.98,84,85,4.05,LR,1682881837
485,san mateo del mar,16.2,-95.0,30.83,44,10,13.54,MX,1682881837
486,punta de piedra,7.6176,-71.4916,32.71,51,63,0.36,VE,1682881838
487,peremyshlyany,49.6652,24.5585,8.02,86,80,4.18,UA,1682881838
488,port angeles,48.1181,-123.4307,14.34,80,75,3.09,US,1682881838
489,sambava,-14.2667,50.1667,24.64,84,39,5.05,MG,1682881838
490,north platte,41.1239,-100.7654,13.95,23,0,9.77,US,1682881838
491,sinop,41.7711,34.8709,5.0,86,63,1.64,TR,1682881839
492,adrar,20.5022,-10.0711,35.02,5,0,4.38,MR,1682881839
493,saint-joseph,-21.3667,55.6167,23.59,80,21,2.84,RE,1682881839
494,aasiaat,68.7098,-52.8699,-0.59,68,0,3.75,GL,1682881839
495,lasa,46.6166,10.7002,12.98,94,100,1.72,IT,1682881839
496,lata,40.1629,-8.3327,21.07,67,0,2.33,PT,1682881840
497,coihaique,-45.5752,-72.0662,7.97,49,75,3.6,CL,1682881743
498,afrikanda,67.4429,32.7828,0.51,99,100,6.61,RU,1682881840
499,odweyne,9.4092,45.064,23.39,68,100,5.37,SO,1682881840
500,gweta,-20.1833,25.2333,26.85,27,23,2.38,BW,1682881840
501,abha,18.2164,42.5053,14.14,88,0,0.0,SA,1682881841
502,saint-francois,46.4154,3.9054,14.69,72,0,4.63,FR,1682881841
503,kamloops,50.6665,-120.3192,22.54,39,17,0.89,CA,1682881841
504,maldonado,-34.6667,-54.9167,28.66,50,100,7.44,UY,1682881593
505,general pico,-35.6566,-63.7568,13.85,45,100,6.68,AR,1682881841
506,belfast,54.5833,-5.9333,12.33,94,20,2.06,GB,1682881797
507,sayat,38.7839,63.8803,27.15,10,75,4.24,TM,1682881842
508,turbat,26.0023,63.044,28.01,52,90,3.51,PK,1682881842
509,puma,-5.0,34.7333,15.77,95,90,2.83,TZ,1682881842
510,neuquen,-38.9516,-68.0591,16.39,24,6,14.07,AR,1682881842
511,saint-augustin,51.226,-58.6502,9.21,54,17,4.19,CA,1682881842
512,mbengwi,6.0167,10.0,19.48,88,100,1.16,CM,1682881842
513,high prairie,55.4334,-116.4858,20.43,38,52,3.01,CA,1682881843
514,blackwater,-23.5833,148.8833,13.56,67,0,2.02,AU,1682881843
515,broome,42.2506,-75.833,13.59,89,100,4.63,US,1682881843
516,bilma,18.6853,12.9164,32.0,9,0,4.23,NE,1682881843
517,erzin,36.9559,36.2,12.64,86,30,1.36,TR,1682881843
518,guarapari,-20.6667,-40.4975,22.16,83,100,1.7,BR,1682881844
519,isla vista,34.4133,-119.861,21.3,58,100,3.09,US,1682881844
520,snyder,32.7179,-100.9176,33.38,7,0,7.2,US,1682881693
521,tairua,-37.0167,175.85,18.99,95,100,9.22,NZ,1682881844
522,pasni,25.2631,63.471,26.81,75,9,3.66,PK,1682881844
523,palanit,12.3213,124.3434,25.85,90,36,2.42,PH,1682881844
524,valdosta,30.8327,-83.2785,23.35,65,75,8.75,US,1682881845
525,fontem,5.4685,9.8818,20.31,92,59,1.0,CM,1682881845
526,svetlyy,54.675,20.1347,5.54,88,0,3.25,RU,1682881845
527,itororo,-15.1169,-40.0703,28.28,58,33,2.3,BR,1682881558
528,sorong,-0.8833,131.25,25.76,88,100,3.57,ID,1682881845
529,sungaipenuh,-2.0833,101.3833,19.11,98,100,0.26,ID,1682881846
530,bogorodskoye,56.55,37.8833,5.49,94,100,3.63,RU,1682881846
531,seymchan,62.8833,152.4333,-5.4,91,99,1.07,RU,1682881846
532,george,-33.963,22.4617,15.44,76,0,1.85,ZA,1682881846
533,cap malheureux,-19.9842,57.6142,24.7,79,1,1.34,MU,1682881846
534,ayaviri,-14.8864,-70.5889,16.58,21,9,2.02,PE,1682881846
535,halifax,44.6453,-63.5724,9.82,69,100,7.2,CA,1682881426
536,kampong thum,12.7111,104.8887,27.3,72,100,0.42,KH,1682881847
537,viedma,-40.8135,-62.9967,16.31,38,100,6.28,AR,1682881847
538,narasannapeta,18.4167,84.05,27.35,77,15,0.26,IN,1682881847
539,ulaangom,49.9811,92.0667,3.8,57,72,6.11,MN,1682881847
540,ghiror,27.1833,78.8,22.09,71,98,3.45,IN,1682881848
541,joshimath,30.5667,79.5667,11.55,76,100,1.88,IN,1682881848
542,sayyan,15.1718,44.3244,14.95,71,98,1.13,YE,1682881848
543,santa isabel do rio negro,-0.4139,-65.0192,28.3,88,87,1.46,BR,1682881848
544,marataizes,-21.0433,-40.8244,24.66,80,100,3.54,BR,1682881848
545,hobyo,5.3505,48.5268,29.11,78,97,6.62,SO,1682881848
546,mangan,27.5167,88.5333,18.81,87,100,0.36,IN,1682881849
547,port hope,43.9408,-82.7127,10.34,87,98,3.6,US,1682881849
548,chirongui,-12.9319,45.1483,27.96,71,39,5.31,YT,1682881849
549,ogembo,-0.7984,34.7253,15.27,95,100,1.26,KE,1682881849
550,baghdad,33.3406,44.4009,20.95,37,0,2.57,IQ,1682881657
551,timmins,48.4669,-81.3331,8.56,95,100,3.44,CA,1682881689
552,tagusao,9.1924,117.8141,26.89,80,63,1.81,PH,1682881849
553,cradock,-32.1642,25.6192,13.74,42,0,0.55,ZA,1682881850
554,ipixuna,-1.7625,-48.8043,28.88,78,100,2.39,BR,1682881850
555,kiruna,67.8557,20.2251,0.51,80,100,2.57,SE,1682881850
556,cuamba,-14.8031,36.5372,17.66,74,7,2.72,MZ,1682881850
557,ca mau,9.1769,105.15,27.57,79,56,3.4,VN,1682881850
558,goderich,43.7501,-81.7165,6.06,93,100,1.81,CA,1682881629
559,kuryk,43.2,51.65,18.19,56,100,6.31,KZ,1682881851
560,semnan,35.5729,53.3971,20.86,38,46,3.07,IR,1682881851
561,xuddur,4.1213,43.8894,25.75,73,100,4.61,SO,1682881851
